{
  "name": "陶陶居",
  "type": "restaurant",
  "branches": [
    {
      "id": 1,
      "branch_name": "(白云万象汇店)",
      "address": "棠乐路1357号广州白云万象汇3楼L3-021铺",
      "district": "白云区",
      "longitude": 113.257858,
      "latitude": 23.1948,
      "coordinate_system": "GCJ-02",
      "map_provider": "amap"
    },
    {
      "id": 2,
      "branch_name": "酒家(番禺天河城店)",
      "address": "南村镇汉溪大道366号401-405",
      "district": "番禺区",
      "longitude": 113.348532,
      "latitude": 23.004295,
      "coordinate_system": "GCJ-02",
      "map_provider": "amap"
    },
    {
      "id": 3,
      "branch_name": "(美院店)",
      "address": "昌岗东路257号之二301铺302铺",
      "district": "海珠区",
      "longitude": 113.277014,
      "latitude": 23.091747,
      "coordinate_system": "GCJ-02",
      "map_provider": "amap"
    },
    {
      "id": 4,
      "branch_name": "广州酒家广东特产店",
      "address": "南馨路16号101铺",
      "district": "海珠区",
      "longitude": 113.275359,
      "latitude": 23.080543,
      "coordinate_system": "GCJ-02",
      "map_provider": "amap"
    },
    {
      "id": 5,
      "branch_name": "酒家(丽影广场店)",
      "address": "新港中路352号丽影广场C区三楼306",
      "district": "海珠区",
      "longitude": 113.319353,
      "latitude": 23.095766,
      "coordinate_system": "GCJ-02",
      "map_provider": "amap"
    },
    {
      "id": 6,
      "branch_name": "酒家(万国店)",
      "address": "前进路40号万国广场6楼606-607",
      "district": "海珠区",
      "longitude": 113.273382,
      "latitude": 23.102015,
      "coordinate_system": "GCJ-02",
      "map_provider": "amap"
    },
    {
      "id": 7,
      "branch_name": "(骏壹万邦店)",
      "address": "曙光路81号骏壹万邦广场二层",
      "district": "花都区",
      "longitude": 113.227925,
      "latitude": 23.405675,
      "coordinate_system": "GCJ-02",
      "map_provider": "amap"
    },
    {
      "id": 8,
      "branch_name": "酒家(白云机场T2店)",
      "address": "广州白云国际机场T2航站楼F2层W52D17",
      "district": "花都区",
      "longitude": 113.302356,
      "latitude": 23.39644,
      "coordinate_system": "GCJ-02",
      "map_provider": "amap"
    },
    {
      "id": 9,
      "branch_name": "(陈家祠店)",
      "address": "中山七路268号力迅·西关雅筑1楼",
      "district": "荔湾区",
      "longitude": 113.247663,
      "latitude": 23.125899,
      "coordinate_system": "GCJ-02",
      "map_provider": "amap"
    },
    {
      "id": 10,
      "branch_name": "酒家(第十甫路店)",
      "address": "第十甫路20号1-5层",
      "district": "荔湾区",
      "longitude": 113.242484,
      "latitude": 23.113365,
      "coordinate_system": "GCJ-02",
      "map_provider": "amap"
    },
    {
      "id": 11,
      "branch_name": "丽宴(西湾路店)",
      "address": "西湾路路150号悦汇城5楼",
      "district": "荔湾区",
      "longitude": 113.243616,
      "latitude": 23.150183,
      "coordinate_system": "GCJ-02",
      "map_provider": "amap"
    },
    {
      "id": 12,
      "branch_name": "(正佳店)",
      "address": "天河路228号正佳广场6层C059铺",
      "district": "天河区",
      "longitude": 113.327286,
      "latitude": 23.131723,
      "coordinate_system": "GCJ-02",
      "map_provider": "amap"
    },
    {
      "id": 13,
      "branch_name": "•臻品(西塔国金店)",
      "address": "珠江西路5号560房502单元(五楼)",
      "district": "天河区",
      "longitude": 113.322746,
      "latitude": 23.118535,
      "coordinate_system": "GCJ-02",
      "map_provider": "amap"
    },
    {
      "id": 14,
      "branch_name": "金牌(太古汇店)",
      "address": "天河路383号太古汇商场M52(石牌桥地铁站出入口旁)",
      "district": "天河区",
      "longitude": 113.33161,
      "latitude": 23.134028,
      "coordinate_system": "GCJ-02",
      "map_provider": "amap"
    },
    {
      "id": 15,
      "branch_name": "酒家(东方宝泰店)",
      "address": "林和中路63号东方宝泰购物中心B3层3002铺",
      "district": "天河区",
      "longitude": 113.324908,
      "latitude": 23.146887,
      "coordinate_system": "GCJ-02",
      "map_provider": "amap"
    },
    {
      "id": 16,
      "branch_name": "雅园(凯华国际中心店)",
      "address": "珠江新城冼村路5号凯华国际中心六楼",
      "district": "天河区",
      "longitude": 113.327546,
      "latitude": 23.117594,
      "coordinate_system": "GCJ-02",
      "map_provider": "amap"
    },
    {
      "id": 17,
      "branch_name": "(五羊邨店)",
      "address": "寺右新马路87号-99号第一层自编113,115,117商铺",
      "district": "越秀区",
      "longitude": 113.311625,
      "latitude": 23.120671,
      "coordinate_system": "GCJ-02",
      "map_provider": "amap"
    },
    {
      "id": 18,
      "branch_name": "(中华广场店)",
      "address": "中华广场4层4013、4014铺",
      "district": "越秀区",
      "longitude": 113.282776,
      "latitude": 23.125567,
      "coordinate_system": "GCJ-02",
      "map_provider": "amap"
    },
    {
      "id": 19,
      "branch_name": "饼家(北京路旗舰店)",
      "address": "禺山路37号",
      "district": "越秀区",
      "longitude": 113.269177,
      "latitude": 23.121588,
      "coordinate_system": "GCJ-02",
      "map_provider": "amap"
    },
    {
      "id": 20,
      "branch_name": "酒家(北京路店)",
      "address": "禺山路37号天河城7层",
      "district": "越秀区",
      "longitude": 113.269994,
      "latitude": 23.120021,
      "coordinate_system": "GCJ-02",
      "map_provider": "amap"
    },
    {
      "id": 21,
      "branch_name": "酒家(建设大马路店)",
      "address": "建设大马路16号自编W104-106",
      "district": "越秀区",
      "longitude": 113.281531,
      "latitude": 23.135666,
      "coordinate_system": "GCJ-02",
      "map_provider": "amap"
    },
    {
      "id": 22,
      "branch_name": "酒家(解放北路店)",
      "address": "解放北路801号桂冠大厦二楼",
      "district": "越秀区",
      "longitude": 113.26167,
      "latitude": 23.133583,
      "coordinate_system": "GCJ-02",
      "map_provider": "amap"
    }
  ]
}
